{"count":5,"locations":[{"address":"111 Gordon Baker Rd","city":"Toronto","id":"38b4cea6-61d4-41fc-b3f2-907f2f0a0724","lat":43.8019585,"lng":-79.343814,"name":"111 Gordon Baker Rd"},{"address":"40 Eglinton Ave E","city":"Toronto","id":"4be03602-c32e-4556-9498-fa5501b9baee","lat":43.7073153,"lng":-79.3971555,"name":"40 Eglinton Ave E"},{"address":"120 Bloor Street East","city":"Toronto","id":"1decb4c9-c197-4289-909e-0ac8de1d0852","lat":43.6712931,"lng":-79.3839334,"name":"Adgar 120 Bloor"},{"address":"302 Town Centre Blvd","city":"Markham","id":"0e9a9103-8458-4ece-bff9-f577ab44d28c","lat":43.8597888,"lng":-79.3402014,"name":"Adgar 302 Town Centre Blvd"},{"address":"2001/2005 Sheppard Avenue East","city":"toronto","id":"20034776-47ad-4cb5-a75e-320a477ed039","lat":43.7939013,"lng":-79.2383408,"name":"Heron\u2019s Hill"}]}
